,City,Cloudiness,Country,Date,Humidity,Lat,Lng,Max Temp,Wind Speed
1,homer,90,US,1551833558,65,59.64,-151.54,5,4.6
2,oranjemund,0,ZA,1551833694,92,-28.55,16.43,17.37,5.11
3,tasiilaq,20,GL,1551829800,44,65.61,-37.64,-7,11.3
4,darhan,0,MN,1551833695,51,49.49,105.92,-7.63,2.41
5,college,75,US,1551833645,53,64.86,-147.8,-1.11,3.46
6,bredasdorp,0,ZA,1551833106,87,-34.53,20.04,20,5.21
7,palmer,75,AU,1551833557,45,-34.85,139.16,18.89,8.2
10,kitob,20,UZ,1551830400,87,39.12,66.88,6,6.2
11,kapaa,75,US,1551833306,53,22.08,-159.32,25,8.2
12,sao joao da barra,64,BR,1551833696,98,-21.64,-41.05,28.1,8.26
13,lota,0,DZ,1551830400,93,36.63,5.3,12,3.6
14,comodoro rivadavia,0,AR,1551830400,30,-45.87,-67.48,21,6.7
15,yulara,0,AU,1551830400,34,-25.24,130.99,26,6.2
16,palauig,0,PH,1551833696,85,15.44,119.9,24.7,2.31
17,kruisfontein,0,ZA,1551833696,76,-34,24.73,19.02,5.46
18,nchelenge,32,ZM,1551833696,93,-9.35,28.74,20.27,1.61
20,rikitea,76,PF,1551833697,97,-23.12,-134.97,27.12,6.76
21,tuktoyaktuk,20,CA,1551830400,78,69.44,-133.03,-13,3.6
22,ilulissat,20,GL,1551829800,56,69.22,-51.1,-11,4.6
23,lompoc,90,US,1551833554,87,34.64,-120.46,14,9.3
24,barrow,76,AR,1551833584,30,-38.31,-60.23,21.35,3.56
26,flinders,0,AU,1551833645,33,-34.58,150.85,32.22,6.7
27,mataura,0,NZ,1551833407,70,-46.19,168.86,23.89,2.24
28,atuona,36,PF,1551833653,100,-9.8,-139.03,27.82,7.56
29,deputatskiy,8,RU,1551833700,47,69.3,139.9,-34.73,1.21
30,klaksvik,44,FO,1551833400,80,62.23,-6.59,2,0.5
31,pevek,92,RU,1551833701,95,69.7,170.27,-14.26,1.76
32,arraial do cabo,64,BR,1551833701,92,-22.97,-42.02,27.02,6.11
33,port alfred,12,ZA,1551833527,93,-33.59,26.89,20.56,2.24
34,saint-philippe,90,CA,1551833708,85,45.36,-73.48,-8.33,1.5
35,mazyr,88,BY,1551833711,80,52.05,29.27,4.25,10.46
36,constitucion,5,MX,1551833415,8,23.99,-104.67,28,8.2
37,punta arenas,75,CL,1551833588,94,-53.16,-70.91,7,2.6
38,maningrida,32,AU,1551833712,100,-12.05,134.23,27.42,2.96
39,cherskiy,88,RU,1551833712,75,68.75,161.3,-17.78,1.31
40,saint george,40,GR,1551833613,86,39.45,22.34,12.22,2.1
41,porvoo,0,FI,1551833704,66,60.4,25.66,-12,3.6
43,praya,75,ID,1551830400,88,-8.71,116.27,27,0.96
44,sars,88,RU,1551833714,83,56.55,57.14,-4.08,5.46
45,nhulunbuy,75,AU,1551830400,83,-12.18,136.78,29,3.1
46,loralai,56,PK,1551833478,73,30.37,68.6,-3.58,1.31
47,changji,68,CN,1551833717,98,32.07,116.17,8.25,2.06
48,carutapera,80,BR,1551833717,96,-1.2,-46.02,25.22,1.51
49,waingapu,8,ID,1551833718,93,-9.65,120.26,26.1,0.41
50,ancud,90,CL,1551830400,100,-41.87,-73.83,13,9.3
51,hithadhoo,92,MV,1551833719,100,-0.6,73.08,27.6,3.01
52,nouakchott,0,MR,1551832200,82,18.08,-15.98,18,5.7
53,souillac,0,FR,1551833648,54,45.6,-0.6,13,9.3
55,shihezi,88,CN,1551833719,81,44.3,86.03,-7.63,1.16
56,perth,40,GB,1551833526,100,56.4,-3.43,3.33,2.6
57,hervey bay,75,AU,1551833108,69,-25.3,152.85,28,5.1
58,dawson,1,US,1551833702,52,39.85,-89.46,-7,2.6
59,busselton,48,AU,1551833714,32,-33.64,115.35,20,9.51
60,new norfolk,40,AU,1551833715,44,-42.78,147.06,15,2.6
61,portland,75,US,1551833464,38,45.52,-122.67,6.67,6.7
63,abu dhabi,0,AE,1551830400,87,24.47,54.37,15,2.1
64,georgetown,20,GY,1551830400,78,6.8,-58.16,27,3.1
65,vilyuysk,64,RU,1551833736,83,63.75,121.63,-9.88,2.96
66,ushuaia,20,AR,1551830400,75,-54.81,-68.31,6,9.8
67,fort saint james,8,CA,1551833736,47,54.43,-124.25,-5.31,2.21
68,marawi,0,PH,1551833155,75,8,124.29,26.67,1.79
69,yar-sale,0,RU,1551833737,71,66.83,70.83,-23.66,2.76
70,white oak,90,US,1551833727,34,39.04,-76.99,2.22,5.1
71,albany,75,US,1551833452,41,42.65,-73.75,-3.33,3.6
74,chokurdakh,20,RU,1551833740,35,70.62,147.9,-31.03,1.36
75,ribeira grande,0,PT,1551833560,100,38.52,-28.7,14.57,7.01
76,qaanaaq,36,GL,1551833740,82,77.48,-69.36,-23.06,2.31
77,te anau,12,NZ,1551833744,51,-45.41,167.72,20.12,5.21
78,port hardy,20,CA,1551830400,35,50.7,-127.42,5,1.5
79,zunheboto,76,IN,1551833553,97,26.02,94.53,9.02,0.21
80,saldanha,92,PT,1551833708,89,41.42,-6.55,10.95,7.51
81,guerrero negro,68,MX,1551833568,56,27.97,-114.04,20.87,3.01
82,marsa matruh,0,EG,1551830400,93,31.35,27.25,9,1.5
83,airai,48,TL,1551833745,86,-8.93,125.41,23.92,0.21
84,half moon bay,90,US,1551833511,82,37.46,-122.43,15,7.2
86,bonthe,0,SL,1551833745,86,7.53,-12.5,25.72,2.11
87,kathu,0,ZA,1551833207,41,-27.7,23.05,24.44,1.31
88,hermanus,0,ZA,1551833211,82,-34.42,19.24,20,2.68
89,oussouye,0,SN,1551830400,68,12.49,-16.54,23,3.1
90,kontagora,24,NG,1551833746,72,10.4,5.47,25.2,1.41
91,nouadhibou,0,MR,1551830400,88,20.93,-17.03,17,6.7
92,chuy,0,UY,1551833749,94,-33.69,-53.46,20.02,3.76
93,moerai,56,PF,1551833749,100,-22.43,-151.33,26,3.86
94,bethel,90,US,1551831780,93,60.79,-161.76,2,4.1
95,matagami,32,NG,1551833753,89,9.67,8.4,18.2,0.91
96,saskylakh,64,RU,1551833544,60,71.97,114.09,-21.98,3.76
97,khatanga,80,RU,1551833588,73,71.98,102.47,-19.51,3.46
98,awjilah,0,LY,1551833753,79,29.14,21.3,7.37,1.21
99,stuttgart,20,DE,1551833657,100,48.78,9.18,6.11,1
101,kaitangata,0,NZ,1551833510,68,-46.28,169.85,21.11,2.24
102,miri,8,NG,1551833753,55,10.31,9.75,19.22,1.36
103,puerto ayora,20,EC,1551830400,69,-0.74,-90.35,28,4.1
104,iskateley,80,RU,1551833753,78,67.68,53.15,-14.38,6.91
106,vila do maio,20,CV,1551830400,68,15.13,-23.22,21,9.3
107,yellowknife,20,CA,1551830400,56,62.45,-114.38,-9,2.6
108,bluff,20,AU,1551833559,57,-23.58,149.07,29.35,4.66
109,xuanhua,0,CN,1551833754,53,40.61,115.04,-6.53,2.96
110,salvador,40,BR,1551830400,79,-12.98,-38.48,29,3.6
111,novosysoyevka,8,RU,1551833754,58,44.23,133.36,-2.38,1.51
112,waipawa,0,NZ,1551833359,45,-39.94,176.59,26.11,0.89
113,lensk,0,RU,1551833754,55,60.71,114.91,-10.08,3.66
115,pisco,40,PE,1551830400,78,-13.71,-76.2,23,9.8
116,east london,20,ZA,1551833755,100,-33.02,27.91,24.12,10.11
117,corinto,8,BR,1551833755,83,-18.36,-44.46,22.47,1.16
118,sarti,24,GR,1551833555,67,40.1,23.98,11.67,2.01
119,molteno,20,ZA,1551833755,42,-31.4,26.36,17.57,2.56
120,acapulco,5,MX,1551829260,74,16.86,-99.88,28,3.6
122,nikolskoye,36,RU,1551833434,85,59.7,30.79,-10.57,6
123,mar del plata,76,AR,1551833476,54,-46.43,-67.52,16.57,11.01
124,hobart,40,AU,1551833655,44,-42.88,147.33,15,2.6
125,marsh harbour,44,BS,1551833626,96,26.54,-77.06,25.42,6.46
126,karlskrona,64,SE,1551831600,100,56.16,15.59,-2,1
127,severo-kurilsk,36,RU,1551833756,100,50.68,156.12,-4.63,6.71
128,tuatapere,24,NZ,1551833407,70,-46.13,167.69,23.89,2.24
129,saint anthony,90,US,1551833750,47,43.97,-111.68,1,3.1
130,eirunepe,8,BR,1551833757,94,-6.66,-69.87,23.85,0.91
131,huaibei,20,CN,1551833757,79,33.96,116.79,5.12,2.96
132,nome,1,US,1551833742,45,30.04,-94.42,8,3.1
133,lorengau,20,PG,1551833757,99,-2.02,147.27,28.52,1.71
134,zlocieniec,88,PL,1551833746,90,53.53,16.01,3.33,0.89
135,hasaki,75,JP,1551833375,76,35.73,140.83,12.22,2.6
136,erdenet,0,MN,1551833758,48,49.03,104.04,-12.58,1.11
137,gweta,0,BW,1551833758,47,-20.21,25.26,26.32,6.91
138,torbay,90,CA,1551833316,73,47.66,-52.73,-2.22,10.3
140,port elizabeth,1,US,1551833744,63,39.31,-74.98,0,3.76
141,sawtell,24,AU,1551833595,54,-30.38,153.1,30.56,5.7
142,lagoa,40,PT,1551833528,87,37.14,-8.45,16,6.7
143,upernavik,24,GL,1551833759,100,72.79,-56.15,-11.91,4.46
144,norman wells,5,CA,1551830400,52,65.28,-126.83,-7,3.1
145,shahreza,0,IR,1551833759,58,32.01,51.87,-12.68,1.16
146,manggar,24,ID,1551833760,99,-2.88,108.27,24.92,1.31
147,zhezkazgan,90,KZ,1551830400,91,47.8,67.71,-17,1
148,saint-pierre,0,FR,1551833524,87,48.95,4.24,7.22,8.2
149,celendin,64,PE,1551833764,76,-6.87,-78.15,16.2,0.76
150,nanortalik,80,GL,1551833766,100,60.14,-45.24,-3.73,14.16
151,port macquarie,12,AU,1551833645,48,-31.43,152.91,32.22,2.6
153,hambantota,0,LK,1551833546,100,6.12,81.12,25.97,2.76
154,kurilsk,76,RU,1551833777,91,45.23,147.88,-0.23,5.26
155,nakapiripirit,0,UG,1551833777,86,1.81,34.71,15.12,0.96
156,talnakh,76,RU,1551833588,79,69.49,88.39,-12.33,5.71
157,vaini,8,IN,1551830400,100,15.34,74.49,15,0.81
158,tiksi,48,RU,1551833637,72,71.64,128.87,-16.01,4.36
159,guarapari,20,BR,1551830400,88,-20.67,-40.5,27,1
160,bathsheba,40,BB,1551830400,69,13.22,-59.52,26,7.2
161,vinh,12,VN,1551833802,88,18.67,105.69,24.75,0.96
162,hamilton,75,BM,1551833170,88,32.3,-64.78,22,11.3
163,griffith,40,AU,1551833416,55,-34.29,146.06,19,9.3
164,ventspils,75,LV,1551831600,68,57.39,21.56,-3,2.6
165,sinnamary,92,GF,1551833804,100,5.38,-52.96,23.72,4.71
166,itupiranga,0,BR,1551834000,100,-5.13,-49.33,26,1.16
167,adrar,0,DZ,1551830400,21,27.87,-0.29,17,5.1
168,sur,0,OM,1551833804,100,22.57,59.53,19.57,0.96
169,umm kaddadah,0,SD,1551833813,22,13.6,26.69,20.52,5.81
170,tual,88,ID,1551833823,100,-5.67,132.75,27.87,2.41
171,hailun,0,CN,1551833823,53,47.46,126.97,-8.01,3.66
172,havre-saint-pierre,75,CA,1551830400,66,50.23,-63.6,-9,9.3
173,dikson,76,RU,1551833823,100,73.51,80.55,-12.16,6.06
174,leningradskiy,88,RU,1551833824,98,69.38,178.42,-11.83,6.71
175,thompson,75,CA,1551830400,60,55.74,-97.86,-14,3.6
176,denpasar,20,ID,1551830400,83,-8.65,115.22,28,2.6
177,iqaluit,5,CA,1551833563,75,63.75,-68.52,-26.67,2.6
178,taoudenni,0,ML,1551833785,28,22.68,-3.98,10.72,1.31
179,castro,90,CL,1551830400,100,-42.48,-73.76,13,9.3
180,sao filipe,0,CV,1551833831,97,14.9,-24.5,21.32,7.96
181,jamestown,8,AU,1551833831,84,-33.21,138.6,14.32,5.81
182,kondol,88,RU,1551833831,95,52.82,45.06,1.6,9.36
185,faanui,80,PF,1551833842,100,-16.48,-151.75,29.07,2.56
187,cape town,0,ZA,1551833568,88,-33.93,18.42,20.56,2.6
188,srednekolymsk,76,RU,1551833845,74,67.46,153.71,-21.66,1.46
189,coahuayana,0,MX,1551833846,27,18.62,-100.35,30.17,1.26
190,cayenne,92,GF,1551830400,88,4.94,-52.33,25,3.01
191,anloga,20,GH,1551830400,83,5.79,0.9,29,4.6
192,keita,20,NG,1551830400,94,7.1,3.65,28,3.11
193,merauke,24,ID,1551833847,100,-8.49,140.4,27.07,2.06
194,carnarvon,0,ZA,1551833847,41,-30.97,22.13,14.75,1.31
195,gusev,56,RU,1551833847,94,54.59,22.2,-1.26,3.21
196,butaritari,92,KI,1551833847,100,3.07,172.79,23.6,0.91
197,atambua,76,ID,1551833848,100,-9.11,124.89,26.22,1.26
199,dicabisagan,12,PH,1551833852,100,17.08,122.42,23.47,1.41
200,dioknisi,0,GE,1551830400,75,41.63,42.39,10,2.6
201,kincardine,40,GB,1551833825,100,56.07,-3.72,4,2.6
202,araouane,8,ML,1551833658,24,18.9,-3.53,13.75,2.46
203,tigil,12,RU,1551833852,82,57.8,158.67,-12.63,2.16
204,mairang,40,IN,1551830400,93,25.56,91.64,17,0.86
205,sao felix do xingu,92,BR,1551833853,100,-6.64,-51.99,21.27,0.51
206,ponta do sol,48,BR,1551833853,85,-20.63,-46,21.7,1.66
207,port moresby,20,PG,1551830400,62,-9.47,147.16,31,2.6
208,faya,40,SA,1551830400,82,18.39,42.45,13,3.6
209,hilo,90,US,1551833841,68,19.71,-155.08,22,3.6
210,ahipara,0,NZ,1551833854,68,-35.17,173.16,22.6,0.16
211,hofn,12,IS,1551833854,100,64.25,-15.21,-1.18,3.76
215,ambanja,88,MG,1551833854,98,-13.68,48.45,21.6,1.41
216,mantua,0,IT,1551833824,89,45.16,10.79,8.33,1
217,jalu,0,LY,1551833644,77,29.03,21.55,6.85,1.26
218,lebu,75,ET,1551830400,93,8.96,38.73,13,2.1
219,estelle,1,US,1551833854,30,32.87,-97.01,6.67,3.1
220,san ignacio,20,CL,1551830400,30,-36.8,-72.03,21,2.6
221,narsaq,56,GL,1551829800,29,60.91,-46.05,1,6.2
222,honningsvag,64,NO,1551833856,100,70.98,25.97,-3.88,4.36
223,panguipulli,8,CL,1551833162,77,-39.64,-72.33,15,3.1
224,wapi pathum,0,TH,1551830400,78,15.84,103.38,24,2.1
225,roald,12,NO,1551833703,100,62.58,6.12,0,6.2
226,prudnik,12,PL,1551833601,68,50.32,17.58,2.78,0.45
227,vanavara,20,RU,1551833860,68,60.35,102.28,-3.88,5.06
229,avarua,76,CK,1551830400,65,-21.21,-159.78,28,3.6
230,caravelas,80,BR,1551833300,100,-17.73,-39.27,28.77,5.41
231,maragogi,88,BR,1551833597,95,-9.01,-35.22,25.35,3.16
232,grand gaube,76,MU,1551833577,100,-20.01,57.66,27.47,5.31
233,gwanda,68,ZW,1551833864,77,-20.94,29,22.45,6.01
234,aykhal,76,RU,1551833864,82,65.95,111.51,-7.48,3.46
235,ushtobe,12,KZ,1551833865,71,45.25,77.98,-5.38,1.06
236,mehamn,24,NO,1551833868,86,71.03,27.85,-9.18,2.61
237,mayo,5,CA,1551830400,40,63.59,-135.9,-10,1.66
238,kailahun,32,SL,1551833871,41,8.28,-10.57,27.87,2.91
239,san cristobal,75,EC,1551833161,87,-0.39,-78.55,16,3.6
240,sheridan,75,US,1551833722,66,39.65,-105.03,0,2.6
241,petropavlovsk-kamchatskiy,76,RU,1551832200,48,53.05,158.65,-8,2
242,naze,20,NG,1551830400,94,5.43,7.07,27,1.76
243,port keats,0,AU,1551833875,86,-14.25,129.55,29.92,5.21
244,mumford,24,GH,1551833875,90,5.26,-0.76,26.87,4.46
245,tosya,0,TR,1551833876,77,41.02,34.04,-3.31,1.36
246,dingle,36,PH,1551833876,79,11,122.67,26,5.51
247,saint-augustin,0,FR,1551833828,54,44.83,-0.61,13,6.2
248,provideniya,0,RU,1551832200,68,64.42,-173.23,-1,5
250,tignere,8,CM,1551833882,49,7.37,12.65,17.47,1.86
251,kamenka,92,RU,1551833883,94,53.19,44.05,1.35,7.96
252,mahibadhoo,92,MV,1551833883,98,3.78,72.97,28.7,4.11
253,kahului,75,US,1551833637,53,20.89,-156.47,25,7.2
254,luruaco,40,CO,1551830400,78,10.61,-75.14,27,5.7
255,longyearbyen,20,NO,1551829800,63,78.22,15.63,-21,3.1
256,sao miguel,48,BR,1551833911,84,4.52,-61.01,21.27,1.21
257,ismailia,0,EG,1551833914,92,30.6,32.27,6.5,2.56
258,tura,100,IN,1551833923,95,25.52,90.21,15.32,1.71
259,fortuna,75,ES,1551833853,93,38.18,-1.13,14,1.5
260,agadez,88,NE,1551833636,18,16.97,7.99,20.67,3.91
261,santa isabel,40,CO,1551830400,94,4.71,-75.1,23,0.21
262,anito,0,PH,1551833925,95,12.45,125.29,26.72,6.21
263,vestmannaeyjar,0,IS,1551833895,100,63.44,-20.27,-3.13,3.36
264,beringovskiy,44,RU,1551833925,97,63.05,179.32,-4.18,1.36
265,magelang,40,ID,1551832200,88,-7.48,110.22,26,1.5
266,timra,0,SE,1551833593,77,62.49,17.33,-13.89,1
267,hailey,90,US,1551833159,64,43.52,-114.32,2,1.01
269,eureka,75,US,1551833832,100,40.8,-124.16,10,1.56
270,chapais,90,CA,1551831540,77,49.78,-74.86,-16,3.1
271,bacungan,20,PH,1551830400,74,9.87,118.73,27,2.1
273,tiznit,12,MA,1551833699,94,29.7,-9.73,11.62,0.61
275,hami,76,CN,1551833953,46,42.84,93.51,5.67,6.26
276,clyde river,90,CA,1551831720,83,70.47,-68.59,-22,3.1
277,karoi,36,ZW,1551833953,90,-16.82,29.68,18.45,2.56
278,warrnambool,80,AU,1551833864,100,-38.38,142.48,13.5,8.06
279,nara,75,JP,1551833941,66,34.68,135.8,11.11,6.2
280,aranos,88,NA,1551833954,32,-24.14,19.11,26.42,4.21
282,tekkali,92,IN,1551833954,97,18.62,84.23,22.37,1.16
283,pierre,1,US,1551833596,62,44.37,-100.35,-6.11,5.1
284,victoria,75,BN,1551832200,88,5.28,115.24,28,1
285,tuy hoa,32,VN,1551833955,100,13.08,109.3,22.72,1.66
286,sorong,76,ID,1551833955,100,-0.86,131.25,27.1,2.51
287,berlevag,44,NO,1551833955,100,70.86,29.09,-9.01,2.86
288,la ronge,20,CA,1551830400,50,55.1,-105.3,-13,6.7
289,boa vista,40,BR,1551834000,45,2.82,-60.67,31,7.2
290,okha,36,RU,1551833957,97,53.59,142.95,-15.56,3.81
291,champoton,40,MX,1551832980,78,19.35,-90.72,27,7.7
292,cabo san lucas,75,MX,1551833742,47,22.89,-109.91,25.56,2.1
293,kodiak,1,US,1551833927,31,39.95,-94.76,-6.67,3.1
294,pyatnitskoye,88,RU,1551830400,86,54.34,35.89,3,5
295,pozo colorado,24,PY,1551833958,64,-23.49,-58.8,29.82,2.86
296,zhangjiakou,0,CN,1551833958,68,40.77,114.88,-7.08,3.36
297,kieta,44,PG,1551833958,95,-6.22,155.63,28.62,2.11
298,syracuse,90,US,1551833806,56,43.05,-76.15,-7.78,3.1
299,bud,0,NO,1551833400,100,62.91,6.91,0,6.2
300,hingoli,0,IN,1551833959,41,19.72,77.14,17.2,3.01
301,salalah,0,OM,1551829800,60,17.01,54.1,23,2.6
302,okakarara,64,NA,1551833959,36,-20.59,17.46,24.37,2.56
303,turzovka,75,SK,1551833959,86,49.41,18.63,4.44,2.6
304,mandalgovi,0,MN,1551833960,71,45.76,106.27,-12.48,2.36
305,mount gambier,75,AU,1551830400,66,-37.83,140.78,13,8.7
306,swiecie,75,PL,1551833788,86,53.41,18.45,5,6.2
307,vardo,90,US,1551833775,33,39.62,-77.74,0,5.1
309,pangody,0,RU,1551833726,77,65.85,74.49,-15.23,4.21
311,riyadh,0,SA,1551830400,23,24.63,46.72,18,2.6
312,mocuba,92,MZ,1551833960,97,-16.84,36.99,22.45,0.91
313,high prairie,56,CA,1551833960,66,55.43,-116.48,-11.63,1.51
315,yerbogachen,80,RU,1551833715,90,61.28,108.01,-4.73,3.91
316,geraldton,20,CA,1551832200,64,49.72,-86.95,-18,2.1
317,camacupa,56,AO,1551833961,81,-12.02,17.48,18.57,1.61
318,namibe,36,AO,1551833961,100,-15.19,12.15,25.7,0.31
319,blairmore,75,CA,1551830400,61,49.61,-114.44,-1,2.6
320,hovd,0,NO,1551833764,78,63.83,10.7,-6.11,5.1
321,mahebourg,80,MU,1551833961,80,-20.41,57.7,26.67,3.91
322,ankang,64,CN,1551833962,85,32.73,108.99,0.97,0.86
323,karpathos,0,GR,1551831600,76,35.51,27.21,14,3.6
324,port lincoln,68,AU,1551833962,90,-34.72,135.86,17.32,6.71
325,cidreira,76,BR,1551833962,83,-30.17,-50.22,24.42,1.66
326,bauchi,8,NG,1551833962,55,10.31,9.85,19.22,1.36
327,mola di bari,0,IT,1551833565,57,41.06,17.09,13.89,2.1
329,cockburn town,8,TC,1551833963,97,21.46,-71.14,25.6,5.26
330,kaa-khem,56,RU,1551833963,71,51.7,94.56,-12.91,1.01
331,padang,40,ID,1551830400,94,-0.92,100.36,22,1
332,camacha,20,PT,1551832200,77,33.08,-16.33,16,8.7
333,praia da vitoria,40,PT,1551832252,66,38.73,-27.07,13,9.16
334,buloh kasap,75,MY,1551830400,94,2.55,102.76,24,1.5
336,hualmay,24,PE,1551833963,73,-11.1,-77.61,23.22,1.96
337,ruwi,0,OM,1551829800,51,23.6,58.55,17,1
338,arteaga,75,MX,1551833416,86,25.45,-100.85,21.67,3.1
339,trosna,88,RU,1551833964,91,52.45,35.78,1.17,7.26
340,taunggyi,12,MM,1551833964,82,20.78,97.03,15.2,2.01
343,jutai,80,BR,1551833964,97,-1.71,-47.89,24,0.91
344,ruteng,88,ID,1551833964,100,-8.61,120.46,23.37,1.56
345,jieshi,100,CN,1551833965,100,22.82,115.83,20.1,1.76
346,paita,68,PE,1551833965,65,-5.09,-81.11,27.1,2.66
347,vershino-darasunskiy,24,RU,1551833965,62,52.35,115.52,-13.43,1.66
348,mao,20,DO,1551833711,73,19.55,-71.08,26.11,5.1
349,pidhorodne,0,UA,1551832200,80,48.57,35.1,2,5
350,husavik,80,CA,1551833670,75,50.56,-96.99,-13.33,2.06
351,valparaiso,1,US,1551833685,61,41.47,-87.06,-7,4.1
352,kenai,90,US,1551833765,68,60.55,-151.26,2,5.1
353,dergachi,32,RU,1551833966,88,51.24,48.77,2,8.26
354,vila,0,IT,1551833826,64,45.18,8.4,9.44,2.1
355,balabac,0,PH,1551833966,98,7.99,117.06,27.32,6.16
356,assiniboia,0,CA,1551833966,79,49.63,-105.99,-11.91,4.66
357,paamiut,64,GL,1551833966,100,61.99,-49.67,-2.28,4.36
358,coquimbo,0,CL,1551830400,87,-29.95,-71.34,16,2.6
359,solnechnyy,56,RU,1551833967,69,50.72,136.64,-8.43,1.66
360,komsomolskiy,8,RU,1551833967,53,67.55,63.78,-20.76,5.81
361,uyuni,32,BO,1551833967,34,-20.46,-66.82,9.2,0.76
362,piombino,0,IT,1551833966,93,42.93,10.52,10.56,2.6
363,yumen,44,CN,1551833967,74,40.29,97.04,-5.76,1.21
364,fort wellington,56,GY,1551833967,93,6.4,-57.6,26.5,7.91
366,guymon,1,US,1551832500,69,36.68,-101.48,2,3.6
367,jaguarao,0,BR,1551833968,87,-32.57,-53.38,22.47,4.56
368,vila franca do campo,75,PT,1551833918,66,37.72,-25.43,12.78,5.1
369,zhigansk,88,RU,1551833835,87,66.77,123.37,-14.18,4.96
370,jinka,12,ET,1551833968,69,5.79,36.57,18.37,1.16
371,san andres,24,PH,1551833887,100,13.32,122.68,25.97,3.06
373,vao,0,EE,1551833968,73,59.1,26.19,-10.18,4.26
374,micco,75,US,1551833957,82,27.85,-80.5,16,4.6
375,zyryanskoye,76,RU,1551833969,86,56.83,86.62,-9.41,2.66
376,san pedro de ycuamandiyu,32,PY,1551833969,66,-24.09,-57.08,28.37,1.86
377,vila velha,40,BR,1551833897,83,-3.71,-38.6,27.22,2.6
378,kingsville,40,US,1551833956,68,39.45,-76.42,2.22,2.6
379,seoul,20,KR,1551833400,75,37.57,126.98,7,1
380,poum,36,MK,1551833969,93,41.28,20.71,-0.23,1.06
381,isangel,88,VU,1551833970,100,-19.55,169.27,26.67,6.36
382,manokwari,76,ID,1551833970,100,-0.87,134.08,26.75,0.16
383,torata,64,PE,1551833970,74,-17.08,-70.84,9.77,0.66
385,mumbwa,8,ZM,1551833970,64,-14.99,27.06,21.2,2.21
386,quthing,32,LS,1551833970,68,-30.4,27.7,13.72,1.21
387,namatanai,8,PG,1551833970,94,-3.66,152.44,29.37,3.36
388,sarangani,0,PH,1551833971,96,5.4,125.46,27.02,6.16
389,puerto penasco,8,MX,1551833160,74,31.32,-113.53,19.44,0.89
390,puerto leguizamo,80,CO,1551833971,94,-0.19,-74.78,24.77,0.31
392,zdvinsk,88,RU,1551833971,91,54.7,78.67,-5.98,3.91
393,auchi,76,NG,1551833972,96,7.07,6.27,22.62,1.26
394,verkhoyansk,12,RU,1551833972,57,67.55,133.39,-29.28,1.21
395,nemuro,0,JP,1551830400,90,43.32,145.57,0,4.6
396,pacific grove,90,US,1551833676,72,36.62,-121.92,15.56,7.2
399,baykit,32,RU,1551833973,69,61.68,96.39,-8.18,5.11
400,amalfi,32,CO,1551833973,75,6.91,-75.07,24.7,0.76
401,ribeira brava,40,PT,1551833890,72,32.65,-17.07,15,2.6
402,baghdad,0,IQ,1551830400,66,33.3,44.38,11,3.1
403,den helder,75,NL,1551833949,87,52.96,4.76,8,6.7
404,nampula,75,MZ,1551830400,100,-15.12,39.26,22,1.5
405,touros,20,BR,1551834000,94,-5.2,-35.46,25,1.5
406,tessalit,8,ML,1551833974,25,20.2,1.01,12.22,2.06
407,nabire,12,ID,1551833975,84,-3.36,135.5,24.12,0.96
408,lubao,40,PH,1551833888,69,14.94,120.6,29.44,1
409,lamont,1,CA,1551833943,78,53.76,-112.78,-11.11,3.1
411,karratha,0,AU,1551833976,53,-20.74,116.85,29.67,2.31
412,kushima,75,JP,1551832329,93,31.5,131.29,12.78,3.6
413,aklavik,5,CA,1551830400,61,68.22,-135.01,-8,2.6
414,zaysan,80,KZ,1551833977,85,47.47,84.87,-6.68,0.81
415,iracoubo,100,GF,1551833977,86,5.48,-53.21,24.52,2.76
416,alugan,0,PH,1551833977,89,12.22,125.48,26.27,5.21
417,biak,12,ID,1551833977,89,-0.91,122.88,27.75,1.06
419,santiago del estero,88,AR,1551833742,79,-27.8,-64.26,25.87,2.96
421,mbanza-ngungu,36,CD,1551833977,96,-5.25,14.87,19.52,1.96
422,vikarabad,0,IN,1551833242,68,17.34,77.9,21.11,2.6
423,kuito,88,AO,1551833978,96,-12.38,16.94,15.07,2.66
424,saint-louis,0,CH,1551833948,70,47.59,7.56,7.22,3.1
425,tazovskiy,88,RU,1551833978,79,67.47,78.7,-15.66,6.01
426,tsabong,0,BW,1551833979,28,-26.02,22.4,20.37,2.86
427,singaparna,64,ID,1551833979,92,-7.35,108.11,19.25,1.31
428,alofi,40,NU,1551830400,58,-19.06,-169.92,30,8.7
429,lively,1,US,1551833225,23,33.6,-99.18,5.56,2.1
431,phonhong,0,LA,1551830400,100,18.5,102.42,21,1.11
432,baracoa,0,CU,1551833979,100,20.35,-74.5,24.82,2.76
434,esperance,20,TT,1551833707,78,10.24,-61.45,25.56,1.5
435,charagua,68,BO,1551833980,83,-19.79,-63.2,24.85,2.06
436,havoysund,75,NO,1551831600,85,71,24.66,-4,9.8
437,baoding,0,CN,1551833980,46,38.86,115.49,1.85,4.16
438,kavaratti,92,IN,1551833980,100,10.57,72.64,26.82,4.61
439,koumac,88,NC,1551833980,90,-20.56,164.28,26.6,3.01
440,kaithal,0,IN,1551833981,86,29.8,76.4,9.72,1.31
445,katherine,0,AU,1551832200,62,-14.47,132.26,31,2.1
446,roebourne,0,AU,1551833981,53,-20.77,117.15,29.67,2.31
447,stromness,75,CA,1551833951,78,42.87,-79.55,-8.89,4.6
448,portree,0,GB,1551833228,89,57.41,-6.19,1.67,1.34
449,wanning,75,AT,1551833970,86,48.64,13.53,5,4.1
450,mukhen,56,RU,1551833985,75,48.19,136.14,-7.28,1.51
451,lavrentiya,92,RU,1551833985,98,65.58,-170.99,-1.38,4.46
452,borshchiv,0,UA,1551833927,71,48.8,26.04,4.44,1.34
454,marsaxlokk,20,MT,1551833743,93,35.84,14.54,12.78,1.5
455,plaster rock,1,CA,1551833790,60,46.91,-67.4,-12,2.51
456,raudeberg,92,NO,1551833703,80,61.99,5.14,4,4.1
457,moyale,0,ET,1551833989,55,3.52,39.05,16.6,1.66
458,harper,1,US,1551833845,41,30.3,-99.24,6.11,2.6
459,honiara,32,SB,1551833770,81,-9.43,159.96,28.42,1.61
460,davila,20,PH,1551830400,78,18.47,120.58,26,1
462,kavieng,20,PG,1551833990,98,-2.57,150.8,29.47,1.86
463,talaya,75,RU,1551833732,85,55.79,84.89,-7,4
464,san juan del sur,0,NI,1551833990,58,11.25,-85.87,29.12,9.76
466,kolvereid,0,NO,1551833991,100,64.86,11.6,-7.93,2.01
467,manturovo,92,RU,1551833991,98,58.33,44.76,1.7,4.21
468,sachica,88,CO,1551833991,84,5.58,-73.54,14.87,0.61
469,tashla,75,RU,1551832200,93,53.71,49.75,2,11
470,voh,56,NC,1551833992,90,-20.95,164.69,26.87,4.46
471,bilma,0,NE,1551833895,35,18.69,12.92,12.02,1.16
472,kupang,40,ID,1551830400,88,-10.16,123.6,28,2.1
473,shirokiy,88,RU,1551833758,94,53.87,39.17,2.22,2.68
474,zvolen,75,SK,1551833947,86,48.58,19.13,4.44,2.6
475,birin,92,SY,1551833992,94,35.01,36.67,8.2,1.31
476,hosangadi,12,IN,1551833992,96,13.7,74.96,15.47,0.76
477,russell,75,AR,1551830400,64,-33.01,-68.8,21,1.5
478,shingu,75,JP,1551830400,58,33.72,135.99,13,1.5
479,palu,12,ID,1551833993,77,-0.9,119.87,21.45,0.86
480,sechura,32,PE,1551833993,75,-5.56,-80.82,26.1,3.31
481,inuvik,5,CA,1551830400,57,68.36,-133.71,-8,1.5
482,rusape,92,ZW,1551833993,92,-18.53,32.12,16.25,1.41
484,ballina,88,IE,1551833893,92,54.11,-9.15,4.44,4.02
485,polanco,56,PH,1551833994,96,8.53,123.36,23.37,0.76
487,jaen,32,PE,1551833994,81,-5.71,-78.81,19.97,0.86
488,bilibino,92,RU,1551833994,74,68.06,166.44,-18.28,1.41
489,koszalin,92,PL,1551833746,89,54.19,16.18,3.33,4.06
490,malanje,44,AO,1551833994,98,-9.54,16.35,19.42,2.06
491,ha tinh,36,VN,1551833995,87,18.33,105.9,26.22,0.56
492,soyo,76,AO,1551833995,98,-6.13,12.37,22.75,2.06
493,cap malheureux,76,MU,1551833995,100,-19.98,57.61,27.47,5.31
494,alice springs,0,AU,1551832200,25,-23.7,133.88,30,6.2
495,hirara,75,JP,1551832140,88,24.8,125.28,21,6.2
496,sisimiut,48,GL,1551833995,78,66.94,-53.67,-15.83,1.71
497,sabancuy,0,MX,1551833999,96,18.97,-91.18,26.72,7.61
498,dauphin,1,CA,1551830400,72,51.15,-100.04,-11,3.6
499,cabinda,88,AO,1551833999,100,-5.56,12.19,25.17,3.16
500,bajil,68,ES,1551833999,85,38.23,-2.07,7.02,1.16
501,road town,40,VG,1551834000,65,18.42,-64.62,26,4.6
502,kachiry,76,KZ,1551834000,90,53.07,76.1,-5.23,4.46
503,preobrazheniye,24,RU,1551834000,80,42.9,133.91,0.87,1.16
504,dilla,44,ET,1551834000,96,6.41,38.31,13.1,1.31
505,axim,44,GH,1551834004,100,4.87,-2.24,27.72,4.01
506,liverpool,75,GB,1551834004,87,53.41,-2.98,9,6.7
507,takoradi,36,GH,1551834017,100,4.89,-1.75,27.17,3.46
508,zyryanovsk,12,KZ,1551834007,78,49.74,84.27,-9.23,0.51
509,bundaberg,75,AU,1551834009,69,-24.87,152.35,28,5.1
511,puerto escondido,5,MX,1551829200,70,15.86,-97.07,29,1.5
512,mazamari,44,PE,1551834063,99,-11.33,-74.53,21.6,0.46
513,scarisoara,0,RO,1551833150,70,44,24.57,8.89,2.1
515,ariquemes,0,BR,1551834069,86,-9.91,-63.03,25.92,1.06
516,graham,1,US,1551833871,53,36.07,-79.4,4.44,3.66
517,lata,0,IN,1551834079,78,30.78,78.62,-1.06,1.21
518,sokoni,76,CD,1551834079,88,-12.89,28.78,19.6,1.86
519,bambous virieux,80,MU,1551834088,80,-20.34,57.76,26.67,3.91
520,burlington,75,CA,1551833951,72,43.32,-79.8,-8.89,4.1
521,dakar,0,SN,1551832200,64,14.69,-17.45,20,8.7
522,doha,0,QA,1551830400,68,25.29,51.53,18,1.5
523,freeport,75,BS,1551830400,78,26.54,-78.7,23,5.7
524,qaqortoq,64,GL,1551829800,29,60.72,-46.03,1,6.2
525,liepaja,56,LV,1551831600,63,56.52,21.02,-1,2.1
526,banff,0,CA,1551832743,42,51.18,-115.57,-8.89,1.34
527,general roca,0,AR,1551830400,45,-39.03,-67.58,18,1.5
529,sarakhs,88,TM,1551830400,100,36.54,61.16,8,1
530,abu zabad,0,SD,1551834100,25,12.35,29.25,21.92,5.76
532,ericeira,75,PT,1551834052,100,38.96,-9.42,13.89,7.7
533,teya,75,MX,1551833206,74,21.05,-89.07,27,3.1
534,lasa,0,CY,1551834047,87,34.92,32.53,10,4.6
535,ponta delgada,75,PT,1551833858,66,37.73,-25.67,12.78,5.1
536,zhuanghe,76,CN,1551833869,97,39.7,122.97,5.56,0.45
537,dali,68,CN,1551834117,100,25.6,100.24,6.1,0.76
538,udachnyy,48,RU,1551833901,81,66.42,112.4,-6.43,2.51
539,kyzyl,24,RU,1551834117,67,51.72,94.43,-15.98,0.36
540,pangnirtung,75,CA,1551830400,83,66.15,-65.72,-20,3.6
541,pangkalanbuun,80,ID,1551834126,97,-2.68,111.62,23.67,1.81
542,edeia,12,BR,1551834126,90,-17.34,-49.93,21.7,1.41
543,novo aripuana,48,BR,1551834127,81,-5.12,-60.38,27.45,0.86
544,sironj,0,IN,1551834130,60,24.1,77.69,11.25,2.66
545,vlore,68,AL,1551834130,96,40.47,19.49,14.47,4.76
546,laguna,90,MX,1551829320,47,27.52,-110.01,25,2.1
547,khani,0,GE,1551832200,82,41.96,42.96,4,2.1
548,ostrogozhsk,88,RU,1551834152,93,50.86,39.08,1.47,5.71
549,mangrol,0,IN,1551834152,70,25.33,76.51,9.7,1.51
550,tingo maria,32,PE,1551834153,95,-9.29,-76.01,19.07,0.76
551,moron,56,VE,1551834130,95,10.49,-68.2,20.85,1.16
552,coihaique,90,CL,1551830400,87,-45.58,-72.07,11,2.6
553,imeni babushkina,92,RU,1551834157,92,59.76,43.13,-0.26,2.66
554,saveh,36,IR,1551834157,80,35.02,50.36,0.37,1.06
555,yoichi,75,JP,1551834011,74,43.19,140.77,5,7.7
556,mrakovo,88,RU,1551834158,90,52.72,56.62,-2.28,5.91
557,umkomaas,92,ZA,1551833998,93,-30.21,30.8,23.33,1.71
558,ejura,88,GH,1551834158,49,7.38,-1.37,28.92,1.31
559,margate,40,AU,1551834135,38,-43.03,147.26,15,5.1
560,humaita,90,AR,1551830400,88,-24.93,-65.37,21,3.1
561,banda aceh,20,ID,1551834185,100,5.56,95.32,22.02,1.06
562,alindao,12,CF,1551834185,81,5.04,21.21,22.72,1.36
563,ocosingo,100,MX,1551834185,93,16.91,-92.09,18.52,0.96
564,copiapo,75,CL,1551830400,77,-27.37,-70.33,18,3.1
565,quatre cocos,80,MU,1551834186,80,-20.21,57.76,26.67,3.91
566,jacmel,75,HT,1551833716,65,18.24,-72.54,28,2.6
567,perelyub,76,RU,1551834195,90,51.87,50.37,1.95,7.91
568,presidente medici,8,BR,1551834195,91,-11.18,-61.9,24.97,1.06
570,san patricio,24,PY,1551834201,75,-26.98,-56.83,25.72,2.51
571,bereda,100,ES,1551834193,82,43.27,-7.54,14.44,8.2
572,susangerd,0,IR,1551830400,62,31.56,48.19,13,1
573,poltavka,20,RU,1551834205,85,54.36,71.76,-9.31,1.26
574,adana,0,TR,1551831600,93,37,35.33,9,2.1
575,uray,8,RU,1551834208,78,60.13,64.8,-15.41,3.41
576,leh,64,IN,1551834209,73,34.16,77.58,-22.08,0.81
577,fort nelson,75,CA,1551830400,67,58.81,-122.69,-8,1
579,batemans bay,92,AU,1551834125,92,-35.71,150.18,21.67,2.51
580,kaeo,0,NZ,1551834186,59,-35.1,173.78,24.44,2.24
581,bekwai,20,GH,1551834209,65,6.46,-1.58,27.22,4.66
582,luderitz,0,NA,1551834210,83,-26.65,15.16,15.95,3.46
583,una,40,BR,1551830400,94,-15.29,-39.07,26,2.1
584,los llanos de aridane,75,ES,1551834012,68,28.66,-17.92,18,1
585,shumikha,8,RU,1551834210,75,55.23,63.28,-11.48,5.01
586,poronaysk,12,RU,1551834210,70,49.22,143.1,-7.98,1.81
587,dandong,76,CN,1551834210,98,40.12,124.37,1.7,1.76
588,kuvshinovo,88,RU,1551834211,99,57.03,34.18,-2.81,9.46
589,beyneu,44,KZ,1551834211,83,45.32,55.19,-2.43,1.41
590,lander,1,US,1551834121,49,42.83,-108.73,-3,1.21
591,erzin,0,TR,1551831600,100,36.95,36.2,11.11,2.1
592,westport,92,IE,1551834184,93,53.8,-9.52,4.44,0.45
593,vostok,0,RU,1551834212,71,46.45,135.83,-4.88,1.41
594,abu samrah,92,SY,1551834212,98,35.3,37.18,9.35,2.16
595,deder,56,ET,1551834212,87,9.31,41.44,17,1.21
596,dunedin,0,NZ,1551833984,61,-45.87,170.5,23.85,1.81
597,makati,20,PH,1551834043,69,14.56,121.02,29.44,1
598,drakino,92,RU,1551834216,94,54.04,43.26,1.02,6.96
599,tshikapa,0,CD,1551834216,96,-6.42,20.79,22.6,1.41
601,port pirie,90,AU,1551830400,52,-33.18,138.01,19,8.2
602,benguela,64,AO,1551834217,100,-12.58,13.4,25.72,1.96
